[{"name":"Ustream","category_code":"games_video","number_of_employees":250,"founded_year":2007,"description":"Live Social Video Community","total_money_raised":"$60.1M","offices":[{"description":"San Francisco Office","address1":"410 Townsend","address2":"Suite 400","zip_code":"94107","city":"San Francisco","state_code":"CA","country_code":"USA","latitude":37.392936,"longitude":-122.07948},{"description":"Los Angeles Office","address1":"6725 W Sunset Blvd","address2":"Suite 320","zip_code":"90028","city":"Los Angeles","state_code":"CA","country_code":"USA","latitude":null,"longitude":null},{"description":"Budapest Office","address1":"","address2":"","zip_code":"","city":"Budapest","state_code":null,"country_code":"HUN","latitude":null,"longitude":null}],"longitud":-122.07948,"latitude":37.392936,"position":{"type":"Point","coordinates":[-122.07948,37.392936]}},{"name":"Livestream","category_code":"games_video","number_of_employees":120,"founded_year":2007,"description":"Live streaming platform and website","total_money_raised":"$14.7M","offices":[{"description":"Livestream HQ","address1":"111 8th Avenue, #1509","address2":"","zip_code":"10011","city":"New York","state_code":"NY","country_code":"USA","latitude":40.726155,"longitude":-73.995625}],"longitud":-73.995625,"latitude":40.726155,"position":{"type":"Point","coordinates":[-73.995625,40.726155]}},{"name":"RockYou","category_code":"games_video","number_of_employees":106,"founded_year":2005,"description":"Social Gaming Company","total_money_raised":"$136M","offices":[{"description":"","address1":"585 Broadway","address2":"Suite A","zip_code":"94063","city":"Redwood City","state_code":"CA","country_code":"USA","latitude":37.484619,"longitude":-122.206893}],"longitud":-122.206893,"latitude":37.484619,"position":{"type":"Point","coordinates":[-122.206893,37.484619]}},{"name":"Zango","category_code":"games_video","number_of_employees":225,"founded_year":1999,"description":"","total_money_raised":"$40M","offices":[{"description":null,"address1":"3600 136th Place SE","address2":null,"zip_code":"98006","city":"Bellevue","state_code":"WA","country_code":"USA","latitude":47.579208,"longitude":-122.155668}],"longitud":-122.155668,"latitude":47.579208,"position":{"type":"Point","coordinates":[-122.155668,47.579208]}},{"name":"hulu","category_code":"games_video","number_of_employees":153,"founded_year":2007,"description":"Online Video Provider","total_money_raised":"$100M","offices":[{"description":null,"address1":"12312 W. Olympic Blvd.","address2":null,"zip_code":"90064","city":"Los Angeles","state_code":"CA","country_code":"USA","latitude":34.031276,"longitude":-118.456806}],"longitud":-118.456806,"latitude":34.031276,"position":{"type":"Point","coordinates":[-118.456806,34.031276]}},{"name":"Zynga","category_code":"games_video","number_of_employees":115,"founded_year":2007,"description":"Network of gaming applications","total_money_raised":"$860M","offices":[{"description":"SF HQ","address1":"365 Vermont St.","address2":"","zip_code":"94103","city":"San Francisco","state_code":"CA","country_code":"USA","latitude":37.765158,"longitude":-122.404234},{"description":"","address1":"","address2":"","zip_code":"","city":"","state_code":null,"country_code":"IND","latitude":null,"longitude":null},{"description":"","address1":"","address2":"","zip_code":"","city":"Baltimore","state_code":"MD","country_code":"USA","latitude":null,"longitude":null},{"description":"","address1":"","address2":"","zip_code":"","city":"Los Angeles","state_code":"CA","country_code":"USA","latitude":null,"longitude":null}],"longitud":-122.404234,"latitude":37.765158,"position":{"type":"Point","coordinates":[-122.404234,37.765158]}},{"name":"Netflix","category_code":"games_video","number_of_employees":2000,"founded_year":1997,"description":"Leading Internet television network ","total_money_raised":"$230M","offices":[{"description":null,"address1":"100 Winchester Circle","address2":"","zip_code":"95032","city":"Los Gatos","state_code":"CA","country_code":"USA","latitude":37.25142,"longitude":-121.968687}],"longitud":-121.968687,"latitude":37.25142,"position":{"type":"Point","coordinates":[-121.968687,37.25142]}},{"name":"Boonty","category_code":"games_video","number_of_employees":150,"founded_year":2001,"description":"","total_money_raised":"$10M","offices":[{"description":null,"address1":"54 Franklin Street","address2":"3F","zip_code":"10013","city":"New York","state_code":"NY","country_code":"USA","latitude":40.717248,"longitude":-74.002662}],"longitud":-74.002662,"latitude":40.717248,"position":{"type":"Point","coordinates":[-74.002662,40.717248]}},{"name":"Realtime Worlds","category_code":"games_video","number_of_employees":225,"founded_year":2002,"description":"Entertainment software, Videogames","total_money_raised":"$82.8M","offices":[{"description":null,"address1":"","address2":"","zip_code":"","city":"Dundee","state_code":null,"country_code":"GBR","latitude":56.461428,"longitude":-2.968111},{"description":"","address1":"","address2":"","zip_code":"","city":"Boulder","state_code":"CO","country_code":"USA","latitude":40.010492,"longitude":-105.276843}],"longitud":-2.968111,"latitude":56.461428,"position":{"type":"Point","coordinates":[-2.968111,56.461428]}},{"name":"Modern Feed","category_code":"games_video","number_of_employees":123,"founded_year":2007,"description":null,"total_money_raised":"$3M","offices":[{"description":null,"address1":"818 N. La Brea Ave.","address2":"","zip_code":"90038","city":"Los Angeles","state_code":"CA","country_code":"USA","latitude":34.085749,"longitude":-118.343791}],"longitud":-118.343791,"latitude":34.085749,"position":{"type":"Point","coordinates":[-118.343791,34.085749]}},{"name":"Kabam","category_code":"games_video","number_of_employees":650,"founded_year":2006,"description":"Leader in Gaming","total_money_raised":"$125M","offices":[{"description":"HQ","address1":"795 Folsom Street","address2":"Suite 600","zip_code":"94107","city":"San Francisco","state_code":"CA","country_code":"USA","latitude":37.3944561,"longitude":-122.0785314},{"description":"Beijing office","address1":"","address2":"","zip_code":"","city":"Beijing","state_code":null,"country_code":"CHN","latitude":null,"longitude":null}],"longitud":-122.0785314,"latitude":37.3944561,"position":{"type":"Point","coordinates":[-122.0785314,37.3944561]}},{"name":"iWin","category_code":"games_video","number_of_employees":103,"founded_year":2001,"description":"","total_money_raised":"$0","offices":[{"description":"","address1":"45 Fremont Street","address2":"Suite 3100","zip_code":"94105","city":"San Francisco","state_code":"CA","country_code":"USA","latitude":37.781689,"longitude":-122.391061}],"longitud":-122.391061,"latitude":37.781689,"position":{"type":"Point","coordinates":[-122.391061,37.781689]}},{"name":"ngmoco","category_code":"games_video","number_of_employees":150,"founded_year":2008,"description":"Games for the iPhone","total_money_raised":"$44.8M","offices":[{"description":"Secret Factory","address1":"185 Berry Street","address2":"Suite 3000","zip_code":"94107","city":"San Francisco","state_code":"CA","country_code":"USA","latitude":37.7705096,"longitude":-122.4015807}],"longitud":-122.4015807,"latitude":37.7705096,"position":{"type":"Point","coordinates":[-122.4015807,37.7705096]}},{"name":"SPIL GAMES","category_code":"games_video","number_of_employees":300,"founded_year":2004,"description":"Online Gaming Portal","total_money_raised":"$0","offices":[{"description":"SPIL GAMES Headquarters","address1":"Arendstraat 23","address2":"","zip_code":"1223RE","city":"Hilversum","state_code":null,"country_code":"NLD","latitude":52.220726,"longitude":5.198824},{"description":"Development Studio","address1":"","address2":"","zip_code":"","city":"","state_code":null,"country_code":"CHN","latitude":null,"longitude":null}],"longitud":5.198824,"latitude":52.220726,"position":{"type":"Point","coordinates":[5.198824,52.220726]}},{"name":"RGB Networks","category_code":"games_video","number_of_employees":125,"founded_year":2003,"description":"network video processing solutions","total_money_raised":"$52M","offices":[{"description":"HQ","address1":"390 West Java Drive","address2":"","zip_code":"94089","city":"Sunnyvale","state_code":"CA","country_code":"USA","latitude":37.4123706,"longitude":-122.0216271}],"longitud":-122.0216271,"latitude":37.4123706,"position":{"type":"Point","coordinates":[-122.0216271,37.4123706]}},{"name":"i-Jet Media","category_code":"games_video","number_of_employees":150,"founded_year":2005,"description":"social games distribution network","total_money_raised":"$0","offices":[{"description":"","address1":"440 N Wolfe Rd","address2":"","zip_code":"94085","city":"Sunnyvale","state_code":"CA","country_code":"USA","latitude":37.384239,"longitude":-122.012475},{"description":"","address1":"8 Ulitsa Gagarina","address2":"office #606","zip_code":"620062","city":"Ekaterinburg","state_code":null,"country_code":"RUS","latitude":null,"longitude":null}],"longitud":-122.012475,"latitude":37.384239,"position":{"type":"Point","coordinates":[-122.012475,37.384239]}},{"name":"Turtle Entertainment","category_code":"games_video","number_of_employees":175,"founded_year":2000,"description":null,"total_money_raised":"$0","offices":[{"description":"Headquarters","address1":"Siegburger Str. 189","address2":"","zip_code":"50679","city":"Cologne","state_code":null,"country_code":"DEU","latitude":50.9272941,"longitude":6.9764978}],"longitud":6.9764978,"latitude":50.9272941,"position":{"type":"Point","coordinates":[6.9764978,50.9272941]}},{"name":"Unity Technologies","category_code":"games_video","number_of_employees":200,"founded_year":2004,"description":"Democratizing interactive 3D","total_money_raised":"$17.5M","offices":[{"description":"US Office","address1":"795 Folsom","address2":"","zip_code":"94107","city":"San Francisco","state_code":"CA","country_code":"USA","latitude":55.6924605,"longitude":12.530107},{"description":"HQ","address1":"Duevej 94 a","address2":"","zip_code":"2000","city":"Frederiksberg","state_code":null,"country_code":"DNK","latitude":null,"longitude":null}],"longitud":12.530107,"latitude":55.6924605,"position":{"type":"Point","coordinates":[12.530107,55.6924605]}},{"name":"Z2Live","category_code":"games_video","number_of_employees":130,"founded_year":2009,"description":"Mobile Games","total_money_raised":"$6.5M","offices":[{"description":"Z2Live","address1":"1601 2nd Ave","address2":"Suite 800","zip_code":"98101","city":"Seattle","state_code":"WA","country_code":"USA","latitude":47.6103008,"longitude":-122.3399782}],"longitud":-122.3399782,"latitude":47.6103008,"position":{"type":"Point","coordinates":[-122.3399782,47.6103008]}},{"name":"2 Minutes","category_code":"games_video","number_of_employees":105,"founded_year":2000,"description":"Animation studio","total_money_raised":"$1.66M","offices":[{"description":"","address1":"9 rue biscornet","address2":"","zip_code":"75012","city":"Paris","state_code":null,"country_code":"FRA","latitude":48.8502056,"longitude":2.3698033}],"longitud":2.3698033,"latitude":48.8502056,"position":{"type":"Point","coordinates":[2.3698033,48.8502056]}},{"name":"Bigpoint","category_code":"games_video","number_of_employees":500,"founded_year":2002,"description":"developer and provider of online games","total_money_raised":"\u20ac420M","offices":[{"description":"Bigpoint Headquarters","address1":"Drehbahn 47-48","address2":"","zip_code":"20354","city":"Hamburg","state_code":null,"country_code":"DEU","latitude":53.5973055,"longitude":9.9762519},{"description":"Bigpoint Inc.","address1":"500 Howard St.","address2":"Suite 300","zip_code":"CA 94105","city":"San Francisco","state_code":"CA","country_code":"USA","latitude":null,"longitude":null},{"description":"Bigpoint Berlin","address1":"Alexander St.","address2":"","zip_code":"10178","city":"Berlin","state_code":null,"country_code":"DEU","latitude":null,"longitude":null},{"description":"Bigpoint International","address1":"1 Villa Zimmermann","address2":"Ta 'Xbiex Terrace","zip_code":"XBX 1035","city":"Ta 'Xbiex","state_code":null,"country_code":"MLT","latitude":null,"longitude":null}],"longitud":9.9762519,"latitude":53.5973055,"position":{"type":"Point","coordinates":[9.9762519,53.5973055]}}]