[{"name":"Starbucks","latitude":37.806565,"longitude":-122.420425,"City":"San Francisco","position":{"type":"Point","coordinates":[-122.420425,37.806565]}},{"name":"Starbucks","latitude":37.778262,"longitude":-122.415038,"City":"San Francisco","position":{"type":"Point","coordinates":[-122.415038,37.778262]}},{"name":"Starbucks Reserve","latitude":37.791511,"longitude":-122.395103,"City":"San Francisco","position":{"type":"Point","coordinates":[-122.395103,37.791511]}},{"name":"Starbucks","latitude":37.784124,"longitude":-122.407653,"City":"San Francisco","position":{"type":"Point","coordinates":[-122.407653,37.784124]}},{"name":"Starbucks","latitude":37.797644,"longitude":-122.430395,"City":"San Francisco","position":{"type":"Point","coordinates":[-122.430395,37.797644]}},{"name":"Starbucks","latitude":37.7629128,"longitude":-122.4104227,"City":"San Francisco","position":{"type":"Point","coordinates":[-122.4104227,37.7629128]}},{"name":"Starbucks","latitude":37.797718,"longitude":-122.401083,"City":"San Francisco","position":{"type":"Point","coordinates":[-122.401083,37.797718]}},{"name":"Starbucks","latitude":37.761019,"longitude":-122.434666,"City":"San Francisco","position":{"type":"Point","coordinates":[-122.434666,37.761019]}},{"name":"Starbucks","latitude":37.7861458,"longitude":-122.4090937,"City":"San Francisco","position":{"type":"Point","coordinates":[-122.4090937,37.7861458]}},{"name":"Starbucks","latitude":37.791311,"longitude":-122.392268,"City":"San Francisco","position":{"type":"Point","coordinates":[-122.392268,37.791311]}},{"name":"Starbucks","latitude":37.787404,"longitude":-122.40322,"City":"San Francisco","position":{"type":"Point","coordinates":[-122.40322,37.787404]}},{"name":"Starbucks","latitude":37.799293,"longitude":-122.449466,"City":"San Francisco","position":{"type":"Point","coordinates":[-122.449466,37.799293]}},{"name":"Starbucks","latitude":37.786261,"longitude":-122.453194,"City":"San Francisco","position":{"type":"Point","coordinates":[-122.453194,37.786261]}},{"name":"Starbucks","latitude":37.789146,"longitude":-122.408456,"City":"San Francisco","position":{"type":"Point","coordinates":[-122.408456,37.789146]}},{"name":"Starbucks","latitude":37.775737,"longitude":-122.446293,"City":"San Francisco","position":{"type":"Point","coordinates":[-122.446293,37.775737]}},{"name":"Starbucks","latitude":37.784166,"longitude":-122.404159,"City":"San Francisco","position":{"type":"Point","coordinates":[-122.404159,37.784166]}},{"name":"Starbucks","latitude":37.767102,"longitude":-122.393893,"City":"San Francisco","position":{"type":"Point","coordinates":[-122.393893,37.767102]}},{"name":"Starbucks","latitude":37.790431,"longitude":-122.40576,"City":"San Francisco","position":{"type":"Point","coordinates":[-122.40576,37.790431]}},{"name":"Starbucks","latitude":37.797007,"longitude":-122.398107,"City":"San Francisco","position":{"type":"Point","coordinates":[-122.398107,37.797007]}},{"name":"Starbucks","latitude":37.788618,"longitude":-122.434696,"City":"San Francisco","position":{"type":"Point","coordinates":[-122.434696,37.788618]}}]