[{"name":"Kyte","category_code":"games_video","number_of_employees":40,"founded_year":2006,"description":"Online & Mobile Video Platform","total_money_raised":"$23.4M","offices":[{"description":null,"address1":"442 Post Street","address2":"10th Floor","zip_code":"94102","city":"San Francisco","state_code":"CA","country_code":"USA","latitude":37.788482,"longitude":-122.409173}],"longitud":-122.409173,"latitude":37.788482,"position":{"type":"Point","coordinates":[-122.409173,37.788482]}},{"name":"Stickam","category_code":"games_video","number_of_employees":35,"founded_year":2006,"description":"","total_money_raised":"$0","offices":[{"description":"","address1":"1975 pads rd","address2":"Suite 3000","zip_code":"90071","city":"Los Angeles","state_code":"CA","country_code":"USA","latitude":34.051409,"longitude":-118.254558}],"longitud":-118.254558,"latitude":34.051409,"position":{"type":"Point","coordinates":[-118.254558,34.051409]}},{"name":"Ustream","category_code":"games_video","number_of_employees":250,"founded_year":2007,"description":"Live Social Video Community","total_money_raised":"$60.1M","offices":[{"description":"San Francisco Office","address1":"410 Townsend","address2":"Suite 400","zip_code":"94107","city":"San Francisco","state_code":"CA","country_code":"USA","latitude":37.392936,"longitude":-122.07948},{"description":"Los Angeles Office","address1":"6725 W Sunset Blvd","address2":"Suite 320","zip_code":"90028","city":"Los Angeles","state_code":"CA","country_code":"USA","latitude":null,"longitude":null},{"description":"Budapest Office","address1":"","address2":"","zip_code":"","city":"Budapest","state_code":null,"country_code":"HUN","latitude":null,"longitude":null}],"longitud":-122.07948,"latitude":37.392936,"position":{"type":"Point","coordinates":[-122.07948,37.392936]}},{"name":"Livestream","category_code":"games_video","number_of_employees":120,"founded_year":2007,"description":"Live streaming platform and website","total_money_raised":"$14.7M","offices":[{"description":"Livestream HQ","address1":"111 8th Avenue, #1509","address2":"","zip_code":"10011","city":"New York","state_code":"NY","country_code":"USA","latitude":40.726155,"longitude":-73.995625}],"longitud":-73.995625,"latitude":40.726155,"position":{"type":"Point","coordinates":[-73.995625,40.726155]}},{"name":"RockYou","category_code":"games_video","number_of_employees":106,"founded_year":2005,"description":"Social Gaming Company","total_money_raised":"$136M","offices":[{"description":"","address1":"585 Broadway","address2":"Suite A","zip_code":"94063","city":"Redwood City","state_code":"CA","country_code":"USA","latitude":37.484619,"longitude":-122.206893}],"longitud":-122.206893,"latitude":37.484619,"position":{"type":"Point","coordinates":[-122.206893,37.484619]}},{"name":"iLike","category_code":"games_video","number_of_employees":28,"founded_year":2002,"description":"social music discovery site","total_money_raised":"$16.5M","offices":[{"description":null,"address1":"1605 Boylston Ave, Suite 202","address2":"","zip_code":"98122","city":"Seattle","state_code":"WA","country_code":"USA","latitude":47.615313,"longitude":-122.323408}],"longitud":-122.323408,"latitude":47.615313,"position":{"type":"Point","coordinates":[-122.323408,47.615313]}},{"name":"hi5","category_code":"games_video","number_of_employees":100,"founded_year":2003,"description":"","total_money_raised":"$52M","offices":[{"description":"","address1":"55 Second Street","address2":"Suite 400","zip_code":"94105","city":"San Francisco","state_code":"CA","country_code":"USA","latitude":37.788668,"longitude":-122.400558}],"longitud":-122.400558,"latitude":37.788668,"position":{"type":"Point","coordinates":[-122.400558,37.788668]}},{"name":"Curse","category_code":"games_video","number_of_employees":58,"founded_year":2006,"description":"Online games media company","total_money_raised":"$12M","offices":[{"description":"San Francisco","address1":"60 Broadway","address2":"","zip_code":"94111","city":"San Francisco","state_code":"CA","country_code":"USA","latitude":37.787092,"longitude":-122.399972},{"description":"Huntsville","address1":"150 West Park Loop NW","address2":"","zip_code":"35806","city":"Huntsville","state_code":"AL","country_code":"USA","latitude":null,"longitude":null}],"longitud":-122.399972,"latitude":37.787092,"position":{"type":"Point","coordinates":[-122.399972,37.787092]}},{"name":"Zango","category_code":"games_video","number_of_employees":225,"founded_year":1999,"description":"","total_money_raised":"$40M","offices":[{"description":null,"address1":"3600 136th Place SE","address2":null,"zip_code":"98006","city":"Bellevue","state_code":"WA","country_code":"USA","latitude":47.579208,"longitude":-122.155668}],"longitud":-122.155668,"latitude":47.579208,"position":{"type":"Point","coordinates":[-122.155668,47.579208]}},{"name":"OMGPOP","category_code":"games_video","number_of_employees":50,"founded_year":2006,"description":"Free online multiplayer game ","total_money_raised":"$16.6M","offices":[{"description":"","address1":"SoHo","address2":"","zip_code":"","city":"New York","state_code":"NY","country_code":"USA","latitude":40.723384,"longitude":-74.001704},{"description":"","address1":"","address2":"","zip_code":"","city":"Austin","state_code":"TX","country_code":"USA","latitude":null,"longitude":null}],"longitud":-74.001704,"latitude":40.723384,"position":{"type":"Point","coordinates":[-74.001704,40.723384]}},{"name":"Crunchyroll","category_code":"games_video","number_of_employees":50,"founded_year":2008,"description":"Digital Entertainment and Media Platform","total_money_raised":"$4.8M","offices":[{"description":"","address1":"","address2":"","zip_code":"94105","city":"San Francisco","state_code":"CA","country_code":"USA","latitude":37.781265,"longitude":-122.393229}],"longitud":-122.393229,"latitude":37.781265,"position":{"type":"Point","coordinates":[-122.393229,37.781265]}},{"name":"Yugma","category_code":"games_video","number_of_employees":38,"founded_year":2003,"description":"","total_money_raised":"$0","offices":[{"description":"YSL Holdings (HQ)","address1":"PO Box 46573","address2":"","zip_code":"55344","city":"Eden Prairie","state_code":"MN","country_code":"USA","latitude":44.865243,"longitude":-93.4094629}],"longitud":-93.4094629,"latitude":44.865243,"position":{"type":"Point","coordinates":[-93.4094629,44.865243]}},{"name":"hulu","category_code":"games_video","number_of_employees":153,"founded_year":2007,"description":"Online Video Provider","total_money_raised":"$100M","offices":[{"description":null,"address1":"12312 W. Olympic Blvd.","address2":null,"zip_code":"90064","city":"Los Angeles","state_code":"CA","country_code":"USA","latitude":34.031276,"longitude":-118.456806}],"longitud":-118.456806,"latitude":34.031276,"position":{"type":"Point","coordinates":[-118.456806,34.031276]}},{"name":"FlowPlay","category_code":"games_video","number_of_employees":30,"founded_year":2006,"description":"Virtual world technology and games","total_money_raised":"$3.97M","offices":[{"description":"","address1":"114 Alaskan Way South","address2":"Ste. 100","zip_code":"98104","city":"Seattle","state_code":"WA","country_code":"USA","latitude":47.6015315,"longitude":-122.335943}],"longitud":-122.335943,"latitude":47.6015315,"position":{"type":"Point","coordinates":[-122.335943,47.6015315]}},{"name":"mig33","category_code":"games_video","number_of_employees":100,"founded_year":2005,"description":"Social Entertainment Platform Company","total_money_raised":"$32.4M","offices":[{"description":"mig33 Headquarters","address1":"111 North Bridge Road","address2":"Peninsula Plaza #26-01","zip_code":"179098","city":"Singapore","state_code":null,"country_code":"SGP","latitude":37.580304,"longitude":-122.343679}],"longitud":-122.343679,"latitude":37.580304,"position":{"type":"Point","coordinates":[-122.343679,37.580304]}},{"name":"Zattoo","category_code":"games_video","number_of_employees":45,"founded_year":2005,"description":"","total_money_raised":"$10M","offices":[{"description":"Zattoo USA","address1":"1327 Jones Dr. Suite 106","address2":"","zip_code":"48105","city":"Ann Arbor","state_code":"MI","country_code":"USA","latitude":42.292649,"longitude":-83.734673},{"description":"Zattoo Europe","address1":"Elias-Canetti-Strasse 7","address2":"","zip_code":"","city":"CH-8050 Z\u00c3\u00bcrich","state_code":null,"country_code":"CHE","latitude":null,"longitude":null}],"longitud":-83.734673,"latitude":42.292649,"position":{"type":"Point","coordinates":[-83.734673,42.292649]}},{"name":"Kewego","category_code":"games_video","number_of_employees":65,"founded_year":2003,"description":"Video sharing and distribution","total_money_raised":"$19.4M","offices":[{"description":"HQ","address1":"111, rue Cardinet","address2":"","zip_code":"75017","city":"Paris","state_code":null,"country_code":"FRA","latitude":46.227638,"longitude":2.213749}],"longitud":2.213749,"latitude":46.227638,"position":{"type":"Point","coordinates":[2.213749,46.227638]}},{"name":"Scrabulous","category_code":"games_video","number_of_employees":30,"founded_year":2006,"description":null,"total_money_raised":"$0","offices":[{"description":null,"address1":null,"address2":null,"zip_code":null,"city":"Kolkata","state_code":null,"country_code":"IND","latitude":22.572646,"longitude":88.363895}],"longitud":88.363895,"latitude":22.572646,"position":{"type":"Point","coordinates":[88.363895,22.572646]}},{"name":"Zynga","category_code":"games_video","number_of_employees":115,"founded_year":2007,"description":"Network of gaming applications","total_money_raised":"$860M","offices":[{"description":"SF HQ","address1":"365 Vermont St.","address2":"","zip_code":"94103","city":"San Francisco","state_code":"CA","country_code":"USA","latitude":37.765158,"longitude":-122.404234},{"description":"","address1":"","address2":"","zip_code":"","city":"","state_code":null,"country_code":"IND","latitude":null,"longitude":null},{"description":"","address1":"","address2":"","zip_code":"","city":"Baltimore","state_code":"MD","country_code":"USA","latitude":null,"longitude":null},{"description":"","address1":"","address2":"","zip_code":"","city":"Los Angeles","state_code":"CA","country_code":"USA","latitude":null,"longitude":null}],"longitud":-122.404234,"latitude":37.765158,"position":{"type":"Point","coordinates":[-122.404234,37.765158]}},{"name":"Netflix","category_code":"games_video","number_of_employees":2000,"founded_year":1997,"description":"Leading Internet television network ","total_money_raised":"$230M","offices":[{"description":null,"address1":"100 Winchester Circle","address2":"","zip_code":"95032","city":"Los Gatos","state_code":"CA","country_code":"USA","latitude":37.25142,"longitude":-121.968687}],"longitud":-121.968687,"latitude":37.25142,"position":{"type":"Point","coordinates":[-121.968687,37.25142]}},{"name":"Social Gaming Network","category_code":"games_video","number_of_employees":100,"founded_year":2011,"description":"social gaming platform","total_money_raised":"$17.1M","offices":[{"description":"HQ Los Angeles","address1":"9570 W. Pico Blvd 3rd Floor","address2":"","zip_code":"90035","city":"Los Angeles","state_code":"CA","country_code":"USA","latitude":37.446823,"longitude":-122.161523},{"description":"","address1":"9606 S. Santa Monica Blvd","address2":"2nd Floor","zip_code":"90210","city":"Beverly Hills","state_code":"CA","country_code":"USA","latitude":34.0698494,"longitude":-118.4054182}],"longitud":-122.161523,"latitude":37.446823,"position":{"type":"Point","coordinates":[-122.161523,37.446823]}},{"name":"Animax Entertainment","category_code":"games_video","number_of_employees":55,"founded_year":2001,"description":"games branded content","total_money_raised":"$0","offices":[{"description":null,"address1":"6627 Valjean Avenue","address2":"","zip_code":"91406","city":"Van Nuys","state_code":"CA","country_code":"USA","latitude":34.19099,"longitude":-118.486428}],"longitud":-118.486428,"latitude":34.19099,"position":{"type":"Point","coordinates":[-118.486428,34.19099]}},{"name":"2threads","category_code":"games_video","number_of_employees":30,"founded_year":2004,"description":"Fashon focused social network","total_money_raised":"$300k","offices":[{"description":null,"address1":"suite 5, 13-29 nichols st","address2":"surry hills","zip_code":"2010","city":"sydney","state_code":null,"country_code":"AUS","latitude":-33.884685,"longitude":151.216427}],"longitud":151.216427,"latitude":-33.884685,"position":{"type":"Point","coordinates":[151.216427,-33.884685]}},{"name":"Boonty","category_code":"games_video","number_of_employees":150,"founded_year":2001,"description":"","total_money_raised":"$10M","offices":[{"description":null,"address1":"54 Franklin Street","address2":"3F","zip_code":"10013","city":"New York","state_code":"NY","country_code":"USA","latitude":40.717248,"longitude":-74.002662}],"longitud":-74.002662,"latitude":40.717248,"position":{"type":"Point","coordinates":[-74.002662,40.717248]}},{"name":"Origin Digital","category_code":"games_video","number_of_employees":80,"founded_year":1997,"description":"Live Online Video Provider","total_money_raised":"$0","offices":[{"description":"","address1":"1200 Harbor Boulevard","address2":"9th Floor","zip_code":"07086","city":"Weehawken","state_code":"NJ","country_code":"USA","latitude":40.761979,"longitude":-74.026033}],"longitud":-74.026033,"latitude":40.761979,"position":{"type":"Point","coordinates":[-74.026033,40.761979]}},{"name":"Mytopia","category_code":"games_video","number_of_employees":29,"founded_year":2007,"description":null,"total_money_raised":"$3.5M","offices":[{"description":"","address1":"","address2":"","zip_code":"94301","city":"Palo Alto","state_code":"CA","country_code":"USA","latitude":34.007967,"longitude":-118.489681}],"longitud":-118.489681,"latitude":34.007967,"position":{"type":"Point","coordinates":[-118.489681,34.007967]}},{"name":"Realtime Worlds","category_code":"games_video","number_of_employees":225,"founded_year":2002,"description":"Entertainment software, Videogames","total_money_raised":"$82.8M","offices":[{"description":null,"address1":"","address2":"","zip_code":"","city":"Dundee","state_code":null,"country_code":"GBR","latitude":56.461428,"longitude":-2.968111},{"description":"","address1":"","address2":"","zip_code":"","city":"Boulder","state_code":"CO","country_code":"USA","latitude":40.010492,"longitude":-105.276843}],"longitud":-2.968111,"latitude":56.461428,"position":{"type":"Point","coordinates":[-2.968111,56.461428]}},{"name":"Cellufun","category_code":"games_video","number_of_employees":30,"founded_year":2005,"description":"Mobile social gaming community","total_money_raised":"$5.23M","offices":[{"description":"Worldwide HQ","address1":"33 West 19th Street","address2":"Suite 329","zip_code":"10011","city":"New York","state_code":"NY","country_code":"USA","latitude":40.73993,"longitude":-73.9930489}],"longitud":-73.9930489,"latitude":40.73993,"position":{"type":"Point","coordinates":[-73.9930489,40.73993]}},{"name":"eRepublik","category_code":"games_video","number_of_employees":30,"founded_year":2007,"description":"Online social strategy game","total_money_raised":"\u20ac2.75M","offices":[{"description":"Office","address1":"Almagro 22","address2":"","zip_code":"28010","city":"Madrid","state_code":null,"country_code":"ESP","latitude":40.43094,"longitude":-3.6952896},{"description":"Office","address1":"Unit 13, The Seapoint Building","address2":"44\/45 Clontarf Road","zip_code":"D3","city":"Dublin","state_code":null,"country_code":"IRL","latitude":null,"longitude":null},{"description":"Office","address1":"Calea Plevnei nr.53, etaj 4","address2":"Sector 1","zip_code":"010223","city":"Bucuresti","state_code":null,"country_code":"ROM","latitude":null,"longitude":null}],"longitud":-3.6952896,"latitude":40.43094,"position":{"type":"Point","coordinates":[-3.6952896,40.43094]}},{"name":"YUPPTV","category_code":"games_video","number_of_employees":70,"founded_year":2008,"description":"Watch your favorite live tv on internet,","total_money_raised":"$0","offices":[{"description":"OTT Video Solutions","address1":"710 Ashepoint Way","address2":"","zip_code":"30004","city":"Alpharetta","state_code":"GA","country_code":"USA","latitude":17.415429,"longitude":78.434422}],"longitud":78.434422,"latitude":17.415429,"position":{"type":"Point","coordinates":[78.434422,17.415429]}},{"name":"Modern Feed","category_code":"games_video","number_of_employees":123,"founded_year":2007,"description":null,"total_money_raised":"$3M","offices":[{"description":null,"address1":"818 N. La Brea Ave.","address2":"","zip_code":"90038","city":"Los Angeles","state_code":"CA","country_code":"USA","latitude":34.085749,"longitude":-118.343791}],"longitud":-118.343791,"latitude":34.085749,"position":{"type":"Point","coordinates":[-118.343791,34.085749]}},{"name":"Kabam","category_code":"games_video","number_of_employees":650,"founded_year":2006,"description":"Leader in Gaming","total_money_raised":"$125M","offices":[{"description":"HQ","address1":"795 Folsom Street","address2":"Suite 600","zip_code":"94107","city":"San Francisco","state_code":"CA","country_code":"USA","latitude":37.3944561,"longitude":-122.0785314},{"description":"Beijing office","address1":"","address2":"","zip_code":"","city":"Beijing","state_code":null,"country_code":"CHN","latitude":null,"longitude":null}],"longitud":-122.0785314,"latitude":37.3944561,"position":{"type":"Point","coordinates":[-122.0785314,37.3944561]}},{"name":"Jinni","category_code":"games_video","number_of_employees":35,"founded_year":2008,"description":"TV & Movie Discovery Engine","total_money_raised":"$8.1M","offices":[{"description":"","address1":"","address2":"","zip_code":"","city":"Tel Aviv","state_code":null,"country_code":"ISR","latitude":32.0554,"longitude":34.7595}],"longitud":34.7595,"latitude":32.0554,"position":{"type":"Point","coordinates":[34.7595,32.0554]}},{"name":"sevenload","category_code":"games_video","number_of_employees":67,"founded_year":2006,"description":"Internet Television Social Network","total_money_raised":"\u20ac25M","offices":[{"description":null,"address1":"Vogelsanger Str. 78","address2":"","zip_code":"50823","city":"Cologne","state_code":null,"country_code":"DEU","latitude":50.945289,"longitude":6.921546}],"longitud":6.921546,"latitude":50.945289,"position":{"type":"Point","coordinates":[6.921546,50.945289]}},{"name":"Sometrics","category_code":"games_video","number_of_employees":35,"founded_year":2007,"description":"In-game Payment Solutions","total_money_raised":"$5.55M","offices":[{"description":"","address1":"","address2":"","zip_code":"90245","city":"El Segundo","state_code":"CA","country_code":"USA","latitude":34.048857,"longitude":-118.251343}],"longitud":-118.251343,"latitude":34.048857,"position":{"type":"Point","coordinates":[-118.251343,34.048857]}},{"name":"iWin","category_code":"games_video","number_of_employees":103,"founded_year":2001,"description":"","total_money_raised":"$0","offices":[{"description":"","address1":"45 Fremont Street","address2":"Suite 3100","zip_code":"94105","city":"San Francisco","state_code":"CA","country_code":"USA","latitude":37.781689,"longitude":-122.391061}],"longitud":-122.391061,"latitude":37.781689,"position":{"type":"Point","coordinates":[-122.391061,37.781689]}},{"name":"Openfilm","category_code":"games_video","number_of_employees":35,"founded_year":2007,"description":"Where creativity meets opportunity","total_money_raised":"$0","offices":[{"description":"Headquarters","address1":"1450 S Miami Ave","address2":"","zip_code":"33130","city":"Miami","state_code":"FL","country_code":"USA","latitude":25.887462,"longitude":-80.166155}],"longitud":-80.166155,"latitude":25.887462,"position":{"type":"Point","coordinates":[-80.166155,25.887462]}},{"name":"VBS TV","category_code":"games_video","number_of_employees":100,"founded_year":2006,"description":"","total_money_raised":"$10M","offices":[{"description":"HeadQuarters","address1":"97 North Tenth Street","address2":"Suite 204","zip_code":"11211","city":"Brooklyn","state_code":"NY","country_code":"USA","latitude":40.720764,"longitude":-73.957968}],"longitud":-73.957968,"latitude":40.720764,"position":{"type":"Point","coordinates":[-73.957968,40.720764]}},{"name":"Yaika","category_code":"games_video","number_of_employees":26,"founded_year":2008,"description":"Localized Personal Content Distributor","total_money_raised":"$0","offices":[{"description":"Tallinn Office","address1":"Fr.R. Kreutzwaldi 4","address2":"","zip_code":"10120","city":"Tallinn","state_code":null,"country_code":"EST","latitude":59.437214,"longitude":24.768664}],"longitud":24.768664,"latitude":59.437214,"position":{"type":"Point","coordinates":[24.768664,59.437214]}},{"name":"Cyloop","category_code":"games_video","number_of_employees":50,"founded_year":2007,"description":null,"total_money_raised":"$0","offices":[{"description":"World Headquarters","address1":"555 Washington Ave, suite 340","address2":"","zip_code":"33137","city":"Miami","state_code":"FL","country_code":"USA","latitude":25.787252,"longitude":-80.13183},{"description":"Madrid Office","address1":"Avda. de Bruselas 38-B 4","address2":"Alcobendas","zip_code":"28108","city":"Madrid","state_code":null,"country_code":"ESP","latitude":40.5288449,"longitude":-3.6429907},{"description":"CA Office","address1":"1960 East Grand Ave., suite 240","address2":"","zip_code":"90245","city":"El Segundo","state_code":"CA","country_code":"USA","latitude":33.918589,"longitude":-118.393719}],"longitud":-80.13183,"latitude":25.787252,"position":{"type":"Point","coordinates":[-80.13183,25.787252]}},{"name":"iStreamPlanet","category_code":"games_video","number_of_employees":50,"founded_year":2000,"description":"","total_money_raised":"$15M","offices":[{"description":"Headquarters","address1":"6630 West Arby Ave.","address2":"Suite 112","zip_code":"89118","city":"Las Vegas","state_code":"NV","country_code":"USA","latitude":36.059658,"longitude":-115.23671},{"description":"Redmond Office","address1":"8561 154th Ave NE","address2":"","zip_code":"98052-3557","city":"Redmond","state_code":"WA","country_code":"USA","latitude":null,"longitude":null}],"longitud":-115.23671,"latitude":36.059658,"position":{"type":"Point","coordinates":[-115.23671,36.059658]}},{"name":"ngmoco","category_code":"games_video","number_of_employees":150,"founded_year":2008,"description":"Games for the iPhone","total_money_raised":"$44.8M","offices":[{"description":"Secret Factory","address1":"185 Berry Street","address2":"Suite 3000","zip_code":"94107","city":"San Francisco","state_code":"CA","country_code":"USA","latitude":37.7705096,"longitude":-122.4015807}],"longitud":-122.4015807,"latitude":37.7705096,"position":{"type":"Point","coordinates":[-122.4015807,37.7705096]}},{"name":"Illumina Digital","category_code":"games_video","number_of_employees":55,"founded_year":1998,"description":null,"total_money_raised":"$0","offices":[{"description":"8 Canham Mews","address1":"Canham Road","address2":"","zip_code":"W3 7SR","city":"London","state_code":null,"country_code":"GBR","latitude":51.503612,"longitude":-0.25628}],"longitud":-0.25628,"latitude":51.503612,"position":{"type":"Point","coordinates":[-0.25628,51.503612]}},{"name":"ModernMethod","category_code":"games_video","number_of_employees":47,"founded_year":1999,"description":null,"total_money_raised":"$0","offices":[{"description":"Miami Office","address1":"4500 Biscayne Blvd","address2":"Suite 306","zip_code":"33137","city":"Miami","state_code":"FL","country_code":"USA","latitude":25.817674,"longitude":-80.18874}],"longitud":-80.18874,"latitude":25.817674,"position":{"type":"Point","coordinates":[-80.18874,25.817674]}},{"name":"ModernMethod","category_code":"games_video","number_of_employees":47,"founded_year":1999,"description":null,"total_money_raised":"$0","offices":[{"description":"Miami Office","address1":"4500 Biscayne Blvd","address2":"Suite 306","zip_code":"33137","city":"Miami","state_code":"FL","country_code":"USA","latitude":25.817674,"longitude":-80.18874}],"longitud":-80.18874,"latitude":25.817674,"position":{"type":"Point","coordinates":[-80.18874,25.817674]}},{"name":"Meteor Games","category_code":"games_video","number_of_employees":70,"founded_year":2007,"description":"Social Game Development Studio","total_money_raised":"$0","offices":[{"description":"","address1":"","address2":"","zip_code":"90210","city":"Beverly Hills","state_code":"CA","country_code":"USA","latitude":34.09316,"longitude":-118.378335}],"longitud":-118.378335,"latitude":34.09316,"position":{"type":"Point","coordinates":[-118.378335,34.09316]}},{"name":"Apaja","category_code":"games_video","number_of_employees":44,"founded_year":2001,"description":null,"total_money_raised":"\u20ac1.75M","offices":[{"description":"Apaja HQ","address1":"Mikonkatu 19","address2":"","zip_code":"00100","city":"Helsinki","state_code":null,"country_code":"FIN","latitude":60.171821,"longitude":24.945167}],"longitud":24.945167,"latitude":60.171821,"position":{"type":"Point","coordinates":[24.945167,60.171821]}},{"name":"38 Studios","category_code":"games_video","number_of_employees":49,"founded_year":2006,"description":"entertainment & video game creator","total_money_raised":"$0","offices":[{"description":"Headquarters","address1":"5 Clock Tower Place","address2":"Suite 140","zip_code":"01754","city":"Maynard","state_code":"MA","country_code":"USA","latitude":42.431652,"longitude":-71.455658}],"longitud":-71.455658,"latitude":42.431652,"position":{"type":"Point","coordinates":[-71.455658,42.431652]}},{"name":"SPIL GAMES","category_code":"games_video","number_of_employees":300,"founded_year":2004,"description":"Online Gaming Portal","total_money_raised":"$0","offices":[{"description":"SPIL GAMES Headquarters","address1":"Arendstraat 23","address2":"","zip_code":"1223RE","city":"Hilversum","state_code":null,"country_code":"NLD","latitude":52.220726,"longitude":5.198824},{"description":"Development Studio","address1":"","address2":"","zip_code":"","city":"","state_code":null,"country_code":"CHN","latitude":null,"longitude":null}],"longitud":5.198824,"latitude":52.220726,"position":{"type":"Point","coordinates":[5.198824,52.220726]}},{"name":"PlayerAuctions","category_code":"games_video","number_of_employees":30,"founded_year":1999,"description":"","total_money_raised":"$0","offices":[{"description":"Headquarters","address1":"","address2":"","zip_code":"","city":"Los Angeles","state_code":"CA","country_code":"USA","latitude":34.052187,"longitude":-118.243425}],"longitud":-118.243425,"latitude":34.052187,"position":{"type":"Point","coordinates":[-118.243425,34.052187]}},{"name":"RGB Networks","category_code":"games_video","number_of_employees":125,"founded_year":2003,"description":"network video processing solutions","total_money_raised":"$52M","offices":[{"description":"HQ","address1":"390 West Java Drive","address2":"","zip_code":"94089","city":"Sunnyvale","state_code":"CA","country_code":"USA","latitude":37.4123706,"longitude":-122.0216271}],"longitud":-122.0216271,"latitude":37.4123706,"position":{"type":"Point","coordinates":[-122.0216271,37.4123706]}},{"name":"i-Jet Media","category_code":"games_video","number_of_employees":150,"founded_year":2005,"description":"social games distribution network","total_money_raised":"$0","offices":[{"description":"","address1":"440 N Wolfe Rd","address2":"","zip_code":"94085","city":"Sunnyvale","state_code":"CA","country_code":"USA","latitude":37.384239,"longitude":-122.012475},{"description":"","address1":"8 Ulitsa Gagarina","address2":"office #606","zip_code":"620062","city":"Ekaterinburg","state_code":null,"country_code":"RUS","latitude":null,"longitude":null}],"longitud":-122.012475,"latitude":37.384239,"position":{"type":"Point","coordinates":[-122.012475,37.384239]}},{"name":"MindSmack","category_code":"games_video","number_of_employees":54,"founded_year":1999,"description":"Web design, mobile apps","total_money_raised":"$0","offices":[{"description":"MindSmack HQ","address1":"311 West 43rd Street","address2":"Penthouse","zip_code":"10036","city":"New York","state_code":"NY","country_code":"USA","latitude":40.758492,"longitude":-73.989987}],"longitud":-73.989987,"latitude":40.758492,"position":{"type":"Point","coordinates":[-73.989987,40.758492]}},{"name":"Geewa","category_code":"games_video","number_of_employees":60,"founded_year":2005,"description":" casual competitive multiplayer games","total_money_raised":"\u20ac1.5M","offices":[{"description":"World Headquarters","address1":"Sokolovska 84","address2":"","zip_code":"18600","city":"Prague 8","state_code":null,"country_code":"CZE","latitude":50.0938491,"longitude":14.4505336},{"description":"Berlin Office","address1":"August Strasse 88","address2":"","zip_code":"10117","city":"Berlin","state_code":null,"country_code":"DEU","latitude":null,"longitude":null}],"longitud":14.4505336,"latitude":50.0938491,"position":{"type":"Point","coordinates":[14.4505336,50.0938491]}},{"name":"Turtle Entertainment","category_code":"games_video","number_of_employees":175,"founded_year":2000,"description":null,"total_money_raised":"$0","offices":[{"description":"Headquarters","address1":"Siegburger Str. 189","address2":"","zip_code":"50679","city":"Cologne","state_code":null,"country_code":"DEU","latitude":50.9272941,"longitude":6.9764978}],"longitud":6.9764978,"latitude":50.9272941,"position":{"type":"Point","coordinates":[6.9764978,50.9272941]}},{"name":"Major League Gaming","category_code":"games_video","number_of_employees":45,"founded_year":2002,"description":"Global Leader in eSports","total_money_raised":"$69M","offices":[{"description":"Corporate Headquarters","address1":"3 Park Avenue","address2":"32nd Floor","zip_code":"10016","city":"New York","state_code":"NY","country_code":"USA","latitude":40.752672,"longitude":-73.97593}],"longitud":-73.97593,"latitude":40.752672,"position":{"type":"Point","coordinates":[-73.97593,40.752672]}},{"name":"Unity Technologies","category_code":"games_video","number_of_employees":200,"founded_year":2004,"description":"Democratizing interactive 3D","total_money_raised":"$17.5M","offices":[{"description":"US Office","address1":"795 Folsom","address2":"","zip_code":"94107","city":"San Francisco","state_code":"CA","country_code":"USA","latitude":55.6924605,"longitude":12.530107},{"description":"HQ","address1":"Duevej 94 a","address2":"","zip_code":"2000","city":"Frederiksberg","state_code":null,"country_code":"DNK","latitude":null,"longitude":null}],"longitud":12.530107,"latitude":55.6924605,"position":{"type":"Point","coordinates":[12.530107,55.6924605]}},{"name":"SCVNGR","category_code":"games_video","number_of_employees":60,"founded_year":2008,"description":"part game, part game platform","total_money_raised":"$40.8M","offices":[{"description":"SCVNGR","address1":"One Congress","address2":"Suite 111","zip_code":"021114","city":"Boston","state_code":"MA","country_code":"USA","latitude":42.3406534,"longitude":-71.0680027}],"longitud":-71.0680027,"latitude":42.3406534,"position":{"type":"Point","coordinates":[-71.0680027,42.3406534]}},{"name":"Owlient","category_code":"games_video","number_of_employees":40,"founded_year":2005,"description":"Browser games & community services","total_money_raised":"\u20ac3M","offices":[{"description":"Main Office","address1":"26-28 rue de Chamb\u00c3\u00a9ry","address2":"","zip_code":"75015","city":"Paris","state_code":null,"country_code":"FRA","latitude":48.8308091,"longitude":2.3032201}],"longitud":2.3032201,"latitude":48.8308091,"position":{"type":"Point","coordinates":[2.3032201,48.8308091]}},{"name":"Z2Live","category_code":"games_video","number_of_employees":130,"founded_year":2009,"description":"Mobile Games","total_money_raised":"$6.5M","offices":[{"description":"Z2Live","address1":"1601 2nd Ave","address2":"Suite 800","zip_code":"98101","city":"Seattle","state_code":"WA","country_code":"USA","latitude":47.6103008,"longitude":-122.3399782}],"longitud":-122.3399782,"latitude":47.6103008,"position":{"type":"Point","coordinates":[-122.3399782,47.6103008]}},{"name":"Preview Networks","category_code":"games_video","number_of_employees":26,"founded_year":2004,"description":"Video content syndication & tracking","total_money_raised":"$4M","offices":[{"description":"European Headquarters","address1":"Njalsgade 21F","address2":"","zip_code":"2300","city":"Copenhagen","state_code":null,"country_code":"DNK","latitude":55.6659813,"longitude":12.5800751},{"description":"London Office","address1":"91 Berwick Street","address2":"","zip_code":"W1F0NE","city":"London","state_code":null,"country_code":"GBR","latitude":null,"longitude":null},{"description":"Berlin Office","address1":"Rosenthaler Strasse 34\/35","address2":"","zip_code":"D-10178","city":"Berlin","state_code":null,"country_code":"DEU","latitude":null,"longitude":null},{"description":"Paris Office","address1":"27 Avenue de l'Op\u00c3\u00a9ra","address2":"","zip_code":"75001","city":"Paris","state_code":null,"country_code":"FRA","latitude":null,"longitude":null},{"description":"Milan Office","address1":"via Guido d'Arezzo, 4","address2":"","zip_code":"20145","city":"Milan","state_code":null,"country_code":"ITA","latitude":null,"longitude":null},{"description":"Stockholm Office","address1":"Klarabergsg. 29, 5 fl.","address2":"","zip_code":"11121","city":"Stockholm","state_code":null,"country_code":"SWE","latitude":null,"longitude":null}],"longitud":12.5800751,"latitude":55.6659813,"position":{"type":"Point","coordinates":[12.5800751,55.6659813]}},{"name":"The Escapist","category_code":"games_video","number_of_employees":30,"founded_year":2005,"description":"Online video game destination","total_money_raised":"$0","offices":[{"description":"Durham Office","address1":"2530 Meridian Parkway","address2":"2nd Floor","zip_code":"27713","city":"Durham","state_code":"NC","country_code":"USA","latitude":35.911733,"longitude":-78.900103}],"longitud":-78.900103,"latitude":35.911733,"position":{"type":"Point","coordinates":[-78.900103,35.911733]}},{"name":"Busca Corp","category_code":"games_video","number_of_employees":45,"founded_year":2007,"description":"Spanish-speaking Entertainment Network","total_money_raised":"$5M","offices":[{"description":"Busca Corp. USA","address1":"7590 Fay Ave. Suite 506","address2":"","zip_code":"92037","city":"La Jolla","state_code":"CA","country_code":"USA","latitude":32.841791,"longitude":-117.274602},{"description":"Busca Corp. Tijuana","address1":"Calle Brasil No. 8471","address2":"Col. Juarez","zip_code":"22040","city":"Tijuana, B.C.","state_code":null,"country_code":"MEX","latitude":32.5217442,"longitude":-117.0274947},{"description":"Busca Corp. Mexico City","address1":"Insurgentes Sur 348 Piso 9","address2":"Col. Roma","zip_code":"06700","city":"Mexico City","state_code":null,"country_code":"MEX","latitude":19.4164309,"longitude":-99.1651395}],"longitud":-117.274602,"latitude":32.841791,"position":{"type":"Point","coordinates":[-117.274602,32.841791]}},{"name":"StreamTheWorld","category_code":"games_video","number_of_employees":65,"founded_year":2005,"description":"Streaming services for broadcasters","total_money_raised":"$0","offices":[{"description":"Headquarters","address1":"1440 Ste-Catherine W., Suite 1200","address2":"","zip_code":"H3G 1R8","city":"Montr\u00c3\u00a9al","state_code":null,"country_code":"CAN","latitude":45.4961227,"longitude":-73.5767499},{"description":"Europe Headquarters","address1":"Rue Centrale 6","address2":"","zip_code":"1003","city":"Lausanne","state_code":null,"country_code":"CHE","latitude":46.5206291,"longitude":6.6328274}],"longitud":-73.5767499,"latitude":45.4961227,"position":{"type":"Point","coordinates":[-73.5767499,45.4961227]}},{"name":"[212]Media","category_code":"games_video","number_of_employees":75,"founded_year":2004,"description":"Venture Development Firm","total_money_raised":"$0","offices":[{"description":"","address1":"72 Madison Avenue","address2":"","zip_code":"","city":"New York","state_code":"NY","country_code":"USA","latitude":40.743877,"longitude":-73.98618}],"longitud":-73.98618,"latitude":40.743877,"position":{"type":"Point","coordinates":[-73.98618,40.743877]}},{"name":"Yoostar","category_code":"games_video","number_of_employees":40,"founded_year":2007,"description":"Movie Karaoke","total_money_raised":"$0","offices":[{"description":"Main Office","address1":"","address2":"","zip_code":"","city":"New York","state_code":"NY","country_code":"USA","latitude":40.756054,"longitude":-73.986951},{"description":"","address1":"","address2":"","zip_code":"","city":"Los Angeles","state_code":"CA","country_code":"USA","latitude":34.052187,"longitude":-118.243425}],"longitud":-73.986951,"latitude":40.756054,"position":{"type":"Point","coordinates":[-73.986951,40.756054]}},{"name":"2 Minutes","category_code":"games_video","number_of_employees":105,"founded_year":2000,"description":"Animation studio","total_money_raised":"$1.66M","offices":[{"description":"","address1":"9 rue biscornet","address2":"","zip_code":"75012","city":"Paris","state_code":null,"country_code":"FRA","latitude":48.8502056,"longitude":2.3698033}],"longitud":2.3698033,"latitude":48.8502056,"position":{"type":"Point","coordinates":[2.3698033,48.8502056]}},{"name":"Bigpoint","category_code":"games_video","number_of_employees":500,"founded_year":2002,"description":"developer and provider of online games","total_money_raised":"\u20ac420M","offices":[{"description":"Bigpoint Headquarters","address1":"Drehbahn 47-48","address2":"","zip_code":"20354","city":"Hamburg","state_code":null,"country_code":"DEU","latitude":53.5973055,"longitude":9.9762519},{"description":"Bigpoint Inc.","address1":"500 Howard St.","address2":"Suite 300","zip_code":"CA 94105","city":"San Francisco","state_code":"CA","country_code":"USA","latitude":null,"longitude":null},{"description":"Bigpoint Berlin","address1":"Alexander St.","address2":"","zip_code":"10178","city":"Berlin","state_code":null,"country_code":"DEU","latitude":null,"longitude":null},{"description":"Bigpoint International","address1":"1 Villa Zimmermann","address2":"Ta 'Xbiex Terrace","zip_code":"XBX 1035","city":"Ta 'Xbiex","state_code":null,"country_code":"MLT","latitude":null,"longitude":null}],"longitud":9.9762519,"latitude":53.5973055,"position":{"type":"Point","coordinates":[9.9762519,53.5973055]}},{"name":"Exent","category_code":"games_video","number_of_employees":100,"founded_year":1992,"description":"Games on Demand Leader","total_money_raised":"$3M","offices":[{"description":"Sales & Marketing","address1":"632 W. 28th St.","address2":"8th Floor","zip_code":"10001","city":"New York","state_code":"NY","country_code":"USA","latitude":40.7523796,"longitude":-74.005568},{"description":"Headquarters","address1":"25 Bazel Street","address2":"PO Box 2645","zip_code":"49125","city":"Petach-Tikva","state_code":null,"country_code":"ISR","latitude":null,"longitude":null},{"description":"Premium Services","address1":"685 Market Street","address2":"Suite 560","zip_code":"94105","city":"San Francisco","state_code":"CA","country_code":"USA","latitude":37.787646,"longitude":-122.402759}],"longitud":-74.005568,"latitude":40.7523796,"position":{"type":"Point","coordinates":[-74.005568,40.7523796]}},{"name":"FacebookLicious!","category_code":"games_video","number_of_employees":30,"founded_year":2007,"description":"Facebook Application Developers","total_money_raised":"$0","offices":[{"description":"Facebooklicious Office.","address1":"42 Paisley Street,","address2":"","zip_code":"19701","city":"Bear","state_code":"DE","country_code":"USA","latitude":39.612223,"longitude":-75.696706}],"longitud":-75.696706,"latitude":39.612223,"position":{"type":"Point","coordinates":[-75.696706,39.612223]}},{"name":"Tiny Speck","category_code":"games_video","number_of_employees":45,"founded_year":2009,"description":"","total_money_raised":"$17.2M","offices":[{"description":"","address1":"163 Hastings St W","address2":"","zip_code":"BC V6B 1H5","city":"Vancouver","state_code":null,"country_code":"CAN","latitude":49.2824551,"longitude":-123.109217}],"longitud":-123.109217,"latitude":49.2824551,"position":{"type":"Point","coordinates":[-123.109217,49.2824551]}}]